city,lat,long,population
Kyiv,50.45,30.5236,2963199
Kharkiv,50,36.2292,1446107
Odesa,46.4775,30.7326,1017699
Dnipro,48.45,34.9833,1002111
Donetsk,48.0089,37.8042,929063
Zaporizhzhia,47.8378,35.1383,741717
Lviv,49.8419,24.0315,724314
Kryvyi Rih,47.9086,33.3433,629695
Mykolaiv,46.9667,32,498748
Mariupol,47.1306,37.5639,449498
Sevastopol,44.6,33.5333,428753
Luhansk,48.5833,39.3333,417990
Vinnytsia,49.2372,28.4672,371855
Makiivka,48.0556,37.9611,347376
Simferopol,44.9484,34.1,341799
Poltava,49.5744,34.5686,317847
Chernihiv,51.4939,31.2947,294522
Kherson,46.6333,32.6,291428
Cherkasy,49.4444,32.0597,276360
Khmelnytskyi,49.42,27,274176
Zhytomyr,50.2544,28.6578,266936
Chernivtsi,48.2908,25.9344,266550
Sumy,50.9068,34.7992,265758
Horlivka,48.3336,38.0925,256714
Rivne,50.6197,26.2514,245630
Ivano-Frankivsk,48.9228,24.7106,236602
Kamianske,48.5076,34.6132,235066
Kremenchuk,49.0775,33.4239,234073
Kropyvnytskyi,48.5103,32.2667,227413
Ternopil,49.5667,25.6,218653
Lutsk,50.7478,25.3244,216505
Bila Tserkva,49.7956,30.1167,208944
Kramatorsk,48.7208,37.5556,159445
Melitopol,46.8333,35.3667,154992
Sievierodonetsk,48.95,38.4833,150000
Drohobych,49.35,23.5,124269
Khrustalnyi,48.1214,38.9453,124000
Uzhhorod,48.6239,22.295,114897
Berdiansk,46.7598,36.7845,114205
Sloviansk,48.87,37.625,113196
Nikopol,47.5772,34.3575,112102
Yevpatoriia,45.2,33.3583,106158
Pavlohrad,48.52,35.87,106082
Alchevsk,48.4672,38.7983,105398
Konotop,51.2369,33.2027,103547
Brovary,50.5114,30.7903,102856
Kamianets-Podilskyi,48.6806,26.5806,100462
Lysychansk,48.9169,38.4306,96161
Dovzhansk,48.0846,39.6516,95153
Mukacheve,48.4414,22.7136,86257
Uman,48.75,30.2167,82762
Yalta,44.4994,34.1553,79458
Yenakiieve,48.2311,38.2053,79348
Shostka,51.8657,33.4766,76788
Berdychiv,49.8919,28.6,76229
Bakhmut,48.6044,38.0067,75798
Stakhanov,48.5472,38.6361,75745
Nizhyn,51.05,31.9,73283
Kostiantynivka,48.5333,37.7167,72888
Izmail,45.35,28.8333,71594
Novomoskovsk,48.6328,35.2239,70749
Nova Kakhovka,46.7667,33.3667,69280
Kovel,51.2167,24.7167,69089
Smila,49.2167,31.8667,68536
Kalush,49.0442,24.3597,66406
Korosten,50.95,28.65,63525
Pokrovsk,48.2833,37.1833,63437
Boryspil,50.35,30.95,62281
Kolomyia,48.5167,25.0333,61269
Rubizhne,49.0167,38.3667,59951
Chornomorsk,46.3017,30.6569,59800
Khartsyzk,48.0333,38.15,59763
Druzhkivka,48.6203,37.5278,59400
Stryi,49.25,23.85,59325
Bilhorod-Dnistrovskyi,46.1833,30.3333,57210
Irpin,50.5167,30.25,56806
Novohrad-Volynskyi,50.5833,27.6333,56288
Lozova,48.8892,36.3161,55827
Antratsyt,48.1167,39.0833,54640
Enerhodar,47.4989,34.6558,53567
Pryluky,50.6,32.4,53395
Novovolynsk,50.7333,24.1667,52188
Horishni Plavni,49.0107,33.6562,52167
Myrnohrad,48.3022,37.2614,50360
Shakhtarsk,48.0333,38.4833,49482
Okhtyrka,50.3074,34.9016,47971
Brianka,48.5133,38.6431,47512
Snizhne,48.0167,38.7667,47259
Marhanets,47.648,34.6167,47141
Rovenky,48.0833,39.3667,46734
Fastiv,50.0747,29.9181,45907
Lubny,50.0186,32.9869,45786
Svitlovodsk,49.0833,33.25,45312
Zhovti Vody,48.35,33.5167,44766
Krasnodon,48.3,39.7333,43683
Shepetivka,50.1833,27.0667,41415
Vyshneve,50.3833,30.3667,40919
Romny,50.7428,33.4879,40316
Myrhorod,49.964,33.6124,40160
Podilsk,47.7419,29.535,40155
Pokrov,47.6632,34.0811,39497
Volodymyr-Volynskyi,50.8481,24.3222,38901
Pervomaisk,48.6333,38.5167,38801
Dzhankoi,45.7086,34.3933,38714
Vasylkiv,50.1775,30.3217,37696
Dubno,50.3931,25.735,37545
Boryslav,49.2881,23.4267,37093
Netishyn,50.33,26.64,36921
Holubivske,48.6375,38.6433,36388
Kakhovka,46.8,33.4667,35900
Boyarka,50.3292,30.2886,35411
Yasynuvata,48.1167,37.8333,35303
Voznesensk,47.5725,31.3119,35243
Bucha,50.5464,30.235,35162
Sambir,49.5167,23.2,35026
Avdiivka,48.1333,37.75,34938
Zhmerynka,49.0425,28.0992,34537
Toretsk,48.4,37.8333,34378
Hlukhiv,51.6765,33.9078,33478
Obukhiv,50.1,30.6167,33204
Chuhuiv,49.8353,36.6756,33144
Yuzhne,46.6222,31.1008,32679
Kostopil,50.8833,26.4431,31463
Tokmak,47.2514,35.7058,31016
Mohyliv-Podilskyi,48.45,27.7833,30982
Synelnykove,48.3178,35.5119,30724
Novoyavorovskoye,49.9311,23.5731,30723
Pervomaiskyi,49.3869,36.2142,30048
Alushta,44.6672,34.3978,29668
Chortkiv,49.0167,25.8,29169
Balakliia,49.4564,36.8389,28868
Truskavets,49.2806,23.505,28867
Novyi Rozdil,49.4703,24.13,28745
Khust,48.1814,23.2978,28424
Pershotravensk,48.3464,36.4044,28363
Khrestivka,48.15,38.3667,28149
Khmilnyk,49.55,27.9667,27941
Ternivka,48.5231,36.0826,27929
Zolotonosha,49.6833,32.0333,27847
Vyshhorod,50.5833,30.5,27825
Bakhchysarai,44.7528,33.8608,27351
Pereyaslav-Khmel’nyts’kyy,50.065,31.445,27088
Sofiyivs’ka Borshchahivka,50.4114,30.3692,26571
Malyn,50.7689,29.27,26204
Perevalsk,48.4333,38.8167,26132
Yany Kapu,45.9675,33.8003,25769
Haisyn,48.8094,29.3906,25672
Korostyshiv,50.3186,29.0592,25445
Vynohradiv,48.1397,23.0331,25403
Slavutych,51.5206,30.7569,25030
Saky,45.1336,33.5772,24885
Kaniv,49.7447,31.4558,24532
Zolochiv,49.8075,24.9031,24059
Selydove,48.15,37.3,23793
Brody,50.0781,25.1542,23752
Berehove,48.2025,22.6375,23732
Koziatyn,49.7167,28.8333,23610
Vilnohirsk,48.4824,34.0189,23235
Molodohvardiisk,48.3444,39.6583,22937
Znamianka,48.7136,32.6733,22936
Ladyzhyn,48.6667,29.2167,22682
Nadvirna,48.6333,24.5833,22447
Lyman,48.9861,37.8111,22315
Bilohorodka,50.4,30.2167,21367
Sukhodilsk,48.35,39.7167,21324
Sokal,50.4833,24.2833,20986
Liubotyn,49.9489,35.9306,20887
Kremenets,50.1081,25.7275,20837
Dolyna,48.9703,24.0108,20691
Henichesk,46.1769,34.7989,19869
Yahotyn,50.2569,31.7817,19613
Pidhorodne,48.5737,35.0966,19524
Balta,47.9361,29.6225,19353
Dolynska,48.1111,32.7648,19287
Kalynivka,49.4472,28.5231,18906
Polohy,47.4796,36.2611,18886
Piatykhatky,48.4126,33.7034,18845
Starobilsk,49.2667,38.9167,18796
Vovchansk,50.2881,36.9461,18644
Skadovsk,46.1167,32.9167,18482
Dniprorudne,47.3855,34.9879,18468
Svatove,49.4092,38.1619,18417
Amvrosiivka,47.7958,38.4801,18413
Korsun-Shevchenkivskyi,49.4261,31.2806,18401
Bolhrad,45.6855,28.6134,17400
Svalyava,48.5472,22.9861,17234
Zvenyhorodka,49.0833,30.9667,17078
Iziaslav,50.1167,26.8,16901
Vatutine,49.0167,31.0667,16888
Sudak,44.8514,34.9725,16756
Horodok,49.1667,26.5667,16516
Berezan,50.3197,31.47,16506
Bilohirsk,45.0544,34.6022,16428
Verkhivtseve,48.4812,34.2488,16364
Kotsyubyns’ke,50.4883,30.3331,16337
Hostomel,50.5692,30.2653,16190
Bar,49.0781,27.6831,16136
Ukrainka,50.15,30.7519,16056
Horodok,49.7822,23.6436,15993
Skvyra,49.7333,29.6833,15889
Yuvileine,48.5531,39.1742,15830
Ovruch,51.3244,28.8081,15795
Putyvl,51.3347,33.8686,15778
Vynnyky,49.8156,24.1297,15723
Ostroh,50.3333,26.5167,15642
Rakhiv,48.05,24.2167,15621
Bohodukhiv,50.1608,35.5164,15576
Bilopillya,51.1532,34.3025,15215
Tulchyn,48.6744,28.8497,15051
Vil’nyans’k,47.9445,35.4331,15044
Burshtyn,49.26,24.635,15039
Zmiiv,49.6878,36.3558,14848
Ochakiv,46.6186,31.5392,14705
Hulyaypole,47.6644,36.2632,14678
Radomyshl,50.4947,29.2333,14607
Stanytsia Luhanska,48.6667,39.4667,14543
Orikhiv,47.5677,35.7849,14479
Hola Prystan,46.5167,32.5167,14479
Zolote,48.6833,38.5167,14376
Lebedyn,50.5831,34.4823,14301
Kivertsi,50.8331,25.4614,14195
Nyzhnia Krynka,48.1144,38.1606,13927
Zhashkiv,49.25,30.1,13853
Zhovkva,50.0667,23.9667,13834
Horodyshche,49.2925,31.4581,13799
Apostolove,47.6595,33.717,13792
Talne,48.8863,30.7027,13558
Kaharlyk,49.8522,30.8092,13544
Zelenodolsk,47.5631,33.6524,13349
Nosivka,50.93,31.58,13310
Borodyanka,50.6439,29.9339,13230
Slobozhanske,48.5342,35.0749,13221
Vasylivka,47.4344,35.2808,13166
Izium,49.2238,37.2915,13108
Yavoriv,49.9469,23.3931,13057
Velykodolynske,46.3425,30.5653,13036
Tetiiv,49.3708,29.69,13015
Rozhyshche,50.9131,25.27,12953
Novhorod-Siverskyi,51.9833,33.2667,12862
Bershad,48.3728,29.5325,12795
Perehinske,48.8103,24.1819,12762
Kamianka-Dniprovska,47.4792,34.4232,12638
Shchastia,48.7381,39.2311,12629
Koriukivka,51.7833,32.25,12539
Buchach,49.0647,25.3872,12511
Kamin-Kashyrskyi,51.6242,24.9606,12489
Hnivan,49.0833,28.35,12433
Beryslav,46.8333,33.4167,12417
Vakhrusheve,48.1606,38.8389,12197
Uzyn,49.8242,30.4425,12147
Bilovodsk,49.1992,39.5756,12000
Mykhailivka 2,47.2717,35.2248,11949
Horodnia,51.8833,31.5833,11852
Ukrainsk,48.1,37.3667,11824
Baranivka,50.3,27.6667,11765
Ovidiopol,46.2667,30.4333,11741
Vasylkivka,48.2084,36.0253,11738
Nemyriv,48.9794,28.8439,11697
Prymorsk,46.7333,36.3596,11679
Mena,51.5167,32.2167,11670
Mala Vyska,48.65,31.6333,11614
Kalmiuske,47.6667,38.0667,11603
Lokhvytsya,50.361,33.2652,11485
Yakymivka,46.6967,35.1664,11481
Myronivka,49.65,30.9833,11478
Snovsk,51.8167,31.95,11390
Hirnyk,48.05,37.3667,11378
Illintsi,49.1,29.2,11270
Sosnivka,50.2946,24.2525,11058
Zhydachiv,49.3833,24.1333,10962
Rokytne,49.6897,30.4751,10938
Bobrynets,48.0578,32.1581,10898
Bobrovytsia,50.7333,31.3833,10894
Manevychi,51.2925,25.5503,10825
Hrebinka,50.118,32.4396,10805
Baryshivka,50.3703,31.3286,10783
Khrystynivka,48.8333,29.9667,10762
Ichnia,50.85,32.4,10709
Bolekhiv,49.0669,23.8514,10476
Lyuboml’,51.2158,24.0408,10466
Olevsk,51.2278,27.6481,10457
Ivankiv,50.9333,29.9,10439
Krasnoilsk,48.0167,25.5833,10351
Letychiv,49.3833,27.6167,10335
Verkhnodniprovsk,48.6561,34.3283,10314
Oster,50.9486,30.8811,10245
Novgorodskoye,48.3156,37.8839,10227
Borzna,51.2333,32.4167,10205
Shyroke,47.6882,33.2654,10202
Inkerman,44.6142,33.6083,10196
Tarashcha,49.55,30.5,10195
Radyvyliv,50.1333,25.25,10190
Korolevo,48.15,23.1333,10165
Teplodar,46.5036,30.3244,10148
Ratne,51.65,24.5333,9955
Sniatyn,48.45,25.5667,9942
Dubove,48.1781,23.8863,9938
Pereshchepyne,49.0179,35.3598,9931
Pokrovske,47.9853,36.2367,9910
Zinkiv,50.2081,34.3668,9856
Berezivka,47.2039,30.9125,9845
Kobeliaky,49.1474,34.1993,9841
Makariv,50.4667,29.8167,9836
Vesele,47.016,34.9124,9719
Khodoriv,49.41,24.3094,9605
Sofiivka,48.2683,38.1847,9597
Mizhhiria,48.5286,23.5019,9567
Bilozerka,46.6333,32.4333,9565
Velyka Dymerka,50.5928,30.9103,9554
Pohrebyshche,49.4869,29.2733,9525
Nyzhnohirskyi,45.4464,34.7344,9460
Bezliudivka,49.8694,36.2719,9436
Dubrovytsya,51.5667,26.5667,9424
Tysmenytsia,48.9008,24.8492,9287
Irshava,48.3172,23.0375,9276
Khotyn,48.5078,26.486,9262
Velykyi Bychkiv,47.9714,24.0047,9255
Valky,49.8386,35.6217,9235
Kalanchak,46.255,33.2906,9224
Obukhivka,48.5442,34.8664,9175
Stryzhavka,49.3103,28.4808,9137
Bilenke,48.7664,37.6314,9136
Horokhiv,50.4994,24.765,9134
Hurzuf,44.5528,34.2875,9117
Horodenka,48.6675,25.5003,9113
Velyki Luchky,48.42,22.5611,9028
Tiachiv,48.0114,23.5722,9019
Pomichna,48.25,31.4167,8994
Kozova,49.4318,25.1544,8989
Uspenka,48.3939,39.1536,8974
Chyhyryn,49.0833,32.6667,8962
Monastyryshche,48.99,29.8011,8925
Chop,48.4333,22.2,8897
Tlumach,48.8669,25.0012,8886
Ilarionove,48.4059,35.2734,8854
Kryzhopil,48.3842,28.8625,8788
Barvynkove,48.9067,37.0131,8660
Rava-Rus’ka,50.25,23.6167,8647
Solotvyno,47.9597,23.8669,8632
Busk,49.9667,24.6167,8624
Andrushivka,50.0167,29.0167,8606
Yasinia,48.2728,24.3747,8579
Masandra,44.5167,34.1833,8571
Bushtyno,48.0503,23.4894,8562
Nerubaiske,46.5467,30.6306,8558
Kosiv,48.315,25.0953,8522
Lypovets,49.2161,29.0561,8463
Lanivtsi,49.8644,26.0782,8401
Deliatyn,48.5286,24.6236,8386
Vyshkovo,48.0581,23.4164,8288
Ivanivka,48.2325,38.9525,8243
Mala Danylivka,50.0614,36.1675,8228
Bohorodchany,48.8,24.5333,8222
Zavodske,50.4002,33.3908,8180
Novi Sanzhary,49.3354,34.3162,8179
Krasnopillya,50.7732,35.2717,8165
Lysianka,49.2542,30.8207,8161
Manhush,47.05,37.3,8127
Tarutyne,46.1846,29.1495,8125
Kvasyliv,50.5569,26.2675,8117
Yaremche,48.4536,24.5564,8094
Ananiv,47.7225,29.96,8077
Semenivka,52.1772,32.5797,8052
Yasnohirka,48.7725,37.5506,8034
Kushuhum,47.7106,35.2192,8032
Pidvolochysk,49.5311,26.1467,7977
Kozelets,50.9164,31.1147,7968
Lanchyn,48.5475,24.7517,7923
Rohatyn,49.4167,24.6167,7797
Nemishayeve,50.5624,30.0925,7766
Kryve Ozero,47.9333,30.3333,7717
Pivdenne,49.8849,36.0687,7705
Dykanka,49.8222,34.5341,7662
Trostianets,48.512,29.2137,7655
Velykyi Dalnyk,46.4658,30.5583,7655
Khoroshiv,50.6,28.45,7644
Solone,48.2054,34.8686,7628
Vapniarka,48.5333,28.75,7612
Teresva,48,23.6992,7589
Novoselytsia,48.2167,26.2667,7588
Velykyy Bereznyy,48.8922,22.4586,7559
Romaniv,50.1517,27.9392,7558
Artemivsk,48.4403,38.7422,7506
Krasnokutsk,50.0567,35.1492,7455
Tsarychanka,48.9432,34.4748,7415
Mezhova,48.2563,36.7313,7380
Rzhyshchiv,49.9611,31.0436,7359
Borova,50.1733,30.1039,7316
Lymanske,46.6639,29.9708,7249
Shyriaieve,47.3878,30.1911,7238
Rudno,49.8404,23.8747,7213
Poninka,50.1833,27.5333,7189
Isliam-Terek,45.2256,35.2033,7067
Molochansk,47.2038,35.5985,7040
Petropavlivka,48.4549,36.4394,7032
Sharhorod,48.75,28.0833,7029
Sosnytsia,51.5222,32.5017,6983
Vorozhba,51.1749,34.2299,6972
Pryvillya,48.9999,38.2948,6970
Shevchenkove,49.6939,37.1794,6959
Tomakivka,47.8163,34.7471,6957
Piskivka,50.7078,29.595,6896
Kupiansk,49.7064,37.6167,6893
Vilshany,50.0533,35.8847,6865
Dobroslav,46.82,30.945,6863
Chynadiyovo,48.4833,22.8333,6860
Nova Maiachka,46.6033,33.2283,6811
Bilmak,47.3589,36.65,6802
Dovhe,48.3675,23.2869,6790
Velyki Komiaty,48.2386,22.9789,6772
Sofiivka,48.0727,33.8937,6748
Hornostaivka,47.007,33.728,6745
Rozsoshentsi,49.5406,34.5042,6731
Lozuvatka,48.061,33.2927,6730
Irshansk,50.7167,28.7167,6718
Oleksandrivsk,48.5833,39.1833,6709
Perechyn,48.7333,22.4667,6683
Lityn,49.3255,28.0872,6658
Svesa,51.9481,33.9367,6644
Karnaukhivka,48.4698,34.7376,6631
Staryi Sambir,49.4333,23,6630
Yemilchyne,50.8708,27.8028,6616
Pryazovske,46.7378,35.6416,6578
Voronovytsia,49.0989,28.6831,6564
Bilokurakyne,49.5167,38.7167,6560
Ivanychi,50.6419,24.3606,6551
Tsuman,50.8333,25.8833,6548
Kubei,45.7925,28.7475,6544
Sudova Vyshnya,49.7892,23.3722,6538
Bile,48.4936,39.0367,6512
Slatyne,50.2161,36.1525,6483
Dobrotvir,50.2056,24.3864,6450
Drabiv,49.9603,32.1481,6450
Vorzel,50.55,30.15,6441
Chervonohryhorivka,47.6233,34.5309,6348
Stavyshche,49.3914,30.1917,6339
Mahdalynivka,48.9147,34.9154,6335
Vinkivtsi,49.0333,27.2333,6330
Turbiv,49.3463,28.7244,6326
Velyki Mosty,50.24,24.1394,6298
Teplyk,48.6594,29.7539,6280
Fontanka,46.5644,30.8586,6260
Blahovishchenske,48.3197,30.2353,6232
Hvardiys’ke,48.7328,35.311,6207
Halych,49.1128,24.7217,6196
Petropavlivs'ka Borshchahivka,50.4378,30.3439,6125
Kushnytsia,48.4517,23.2581,6100
Kehychivka,49.2858,35.7622,6090
Partenit,44.5764,34.3397,6089
Sutysky,49.0422,28.4208,6069
Ahrarne,45.0186,34.0544,6034
Balabyne,47.735,35.2142,6010
Volodarka,49.52,29.9153,5996
Murovani Kurylivtsi,48.7222,27.515,5872
Ozerne,50.1794,28.7361,5851
Morshyn,49.155,23.8725,5850
Verkhovyna,48.1517,24.8136,5829
Chernihivka,47.1942,36.2023,5813
Veselynove,47.3583,31.2397,5785
Dobrovelychkivka,48.35,31.1667,5763
Lyubeshiv,51.7631,25.4992,5762
Hrebinky,49.9564,30.1714,5749
Sokilnyky,49.7769,23.9614,5727
Turiys’k,51.0833,24.5333,5676
Oleksandriiske,48.6019,32.9889,5672
Horonda,48.3786,22.5681,5630
Dniprovske,48.5953,34.4207,5628
Chudniv,50.0528,28.0969,5583
Dymer,50.7872,30.3117,5582
Savyntsi,49.4105,37.0617,5571
Broshniv-Osada,48.9994,24.1814,5557
Korop,51.5661,32.9508,5545
Zoria,45.9917,29.6989,5528
Tomashpil,48.5471,28.5157,5527
Nova Borova,50.6922,28.6367,5517
Nedryhayliv,50.8332,33.8799,5511
Hubynykha,48.8084,35.2535,5509
Rivne 2,48.2403,31.7492,5505
Stara Syniava,49.6,27.6167,5501
Stepanivka,50.943,34.6334,5490
Koreiz,44.4331,34.0872,5455
Otyniia,48.7339,24.8569,5444
Pulyny,50.4664,28.2778,5411
Bryukhovychi,49.9,23.9436,5400
Horenka,50.5569,30.3175,5358
Horodnytsia,50.8094,27.3183,5340
Pishchanka,48.2058,28.8889,5322
Shatsk,51.4878,23.9297,5320
Hoshcha,50.5986,26.6753,5319
Mykolayivka,48.3823,36.3086,5318
Bratske,47.8636,31.5781,5313
Opishnya,49.9564,34.612,5292
Komyshuvakha,47.7155,35.5241,5269
Pechenihy,49.8647,36.9364,5264
Pechenizhyn,48.51,24.8892,5253
Stara Vyzhivka,51.4396,24.4373,5248
Bratslav,48.8147,28.9447,5241
Novomykolayivka,47.9779,35.9099,5238
Novohuivynske,50.2022,28.685,5236
Chemerivtsi,49,26.3667,5200
Kalynivka,50.2256,30.2319,5198
Yalta,46.9667,37.2667,5159
Volovets,48.7242,23.2,5128
Kyrnasivka,48.5914,28.98,5087
Z·hurivka,50.4976,31.7739,5036
Klavdiyevo-Tarasove,50.5825,30.0053,5029
Kolochava,48.4266,23.6984,5029
Bohdanivka,48.5015,36.11,5016
Chechelnyk,48.2122,29.3622,5002
Novoozerne,45.3858,33.12,4998
Brusyliv,50.2833,29.5333,4914
Prosyana,48.1174,36.3743,4907
Dobromyl,49.5667,22.7833,4890
Miusynsk,48.0727,38.9002,4830
Moshny,49.5117,31.7442,4799
Petropavlivka,48.8044,39.2628,4768
Kalyta,50.7503,31.0264,4753
Talalaivka,50.8299,33.1485,4745
Khotiv,50.3333,30.4664,4737
Blahodatne,50.65,24.2667,4714
Chabany,50.34,30.4228,4641
Torchyn,50.7667,25,4601
Myropil,50.1075,27.7058,4576
Brailiv,49.1053,28.1536,4574
Petrykivka,48.7281,34.6288,4567
Dubivskyi,48.0822,39.1569,4550
Olenivka,47.8333,37.65,4549
Velykyi Rakovets,48.2708,23.1444,4545
Lyublynets’,51.1833,24.6167,4534
Velykyi Liubin,49.7239,23.7336,4516
Krynychky,48.1264,38.0294,4503
Novooleksandrivka,48.3454,34.9969,4502
Boromlya,50.6204,34.9723,4490
Boikivske,47.4139,38.0108,4461
Stepnohirsk,47.5861,35.3638,4420
Zabolottya,51.6333,24.2667,4411
Znamenivka,48.6344,35.4561,4410
Svyatohirs’k,49.0333,37.5833,4395
Bytkiv,48.6244,24.4858,4389
Krynychne,45.5358,28.6678,4348
Shyshaky,49.8769,34.0071,4347
Brylivka,46.425,33.1511,4339
Zaozerne,45.16,33.2747,4332
Mliiv,49.3475,31.5364,4330
Almazna,48.5167,38.5833,4301
Dovbysh,50.3722,27.9895,4288
Kolchyno,48.4667,22.7667,4283
Shabelkivka,48.7608,37.4881,4267
Sursko-Lytovske,48.3364,34.9355,4264
Serednye,48.5333,22.5,4258
Novyi Kalyniv,49.5606,23.3044,4256
Cherkaske,48.7008,35.3844,4252
Vorokhta,48.2833,24.5667,4246
Mykolaivka,50.9422,34.382,4210
Obroshino,49.7853,23.8686,4186
Lyman,49.5894,36.47,4184
Krynychky,48.3686,34.4644,4176
Lazeshchyna,48.2692,24.4186,4174
Hryshkivtsi,49.9356,28.6017,4150
Ustynivka,47.95,32.5333,4142
Melioratyvne,48.6222,35.3477,4140
Berezanka,46.855,31.3875,4132
Auly,48.5575,34.4628,4127
Volodkova Divytsia,50.9436,31.7894,4107
Novomykolaivka,48.5556,34.3771,4090
Luhyny,51.0667,28.3833,4077
Nova Ushytsia,48.833,27.2672,4075
Oleksandrivka,47.9208,37.575,4068
Kuty,48.2636,25.1736,4067
Hołoby,51.0833,25.0167,4058
Kolky,51.0992,25.6667,4057
Velyki Sorochyntsi,50.0253,33.9477,4050
Novopillia,47.9539,33.5278,4037
Krynychne,47.9528,39.7383,4027
Tyvriv,49.0116,28.5011,4006
Zabolotiv,48.4667,25.2833,3998
Vyzhnytsia,48.25,25.1917,3997
Yerky,48.9781,30.9919,3976
Suprunivka,49.5812,34.427,3974
Skalat,49.4333,25.9833,3957
Dzhulynka,48.4417,29.7475,3953
Rubanivka,46.9953,34.1694,3927
Matviyivka,47.9026,35.3046,3902
Simeiz,44.4069,34.0111,3901
Dashiv,49.0047,29.4278,3887
Bohuslav,48.4661,36.0287,3880
Rozhniativ,48.9354,24.1585,3874
Radushne,47.822,33.5029,3874
Lokachi,50.7383,24.6372,3856
Onufriivka,48.9023,33.4464,3855
Solotvyn,48.7,24.5333,3850
Klembivka,48.3894,28.4064,3842
Prymorske,47.6244,35.2943,3840
Holubivka,48.8853,35.3246,3836
Verbky,48.5911,35.8967,3822
Bibrka,49.6358,24.2936,3817
Kalynivka,50.5592,30.8211,3806
Lazy,48.0581,23.645,3801
Pavlivka,49.4411,28.4653,3798
Komarno,49.6333,23.7,3794
Vendychany,48.613,27.7944,3793
Chaplyne,48.1273,36.2374,3783
Velykyi Burluk,50.0456,37.3906,3772
Dmytrivka,48.3887,36.1918,3772
Lypcha,48.2628,23.3819,3769
Novosilky,50.3544,30.4544,3761
Medvyn,49.3903,30.7847,3749
Nyzhnya Syrovatka,50.7814,34.8382,3717
Preobrazhenka,47.5784,35.8038,3710
Losynivka,50.83,31.92,3706
Kuchurhan,46.7236,29.9775,3700
Myhove,48.15,25.3806,3693
Kashperivka,49.4311,29.6814,3689
Zhvyrka,50.465,24.2567,3665
Kamiani Potoky,48.9859,33.5186,3662
Voskresenka,47.4707,36.357,3648
Oleksiivka,47.5943,34.2377,3600
Tsybuliv,49.0733,29.8472,3568
Osiy,48.3611,23.1194,3555
Zatyshshia,47.3353,29.8708,3537
Verbivka,49.4883,36.8297,3515
Kryukivshchyna,50.3683,30.3681,3509
Kobyletska Poliana,48.0822,24.0747,3498
Makhnivka,49.7219,28.6769,3467
Kyrylivka,46.3731,35.3675,3464
Hora,50.3708,30.8617,3461
Pershotravensk,50.2011,27.6339,3452
Shchebetovka,44.9389,35.1583,3442
Novopavlivka,48.1376,36.7827,3439
Solonka,49.74,24.03,3391
Kozyn,50.2278,30.65,3371
Medenychi,49.4333,23.75,3371
Machukhy,49.5296,34.4297,3337
Ropcha,48.1175,25.7925,3324
Mykolayivka,48.7867,35.1796,3324
Hlukhivtsi,49.7728,28.7189,3320
Malokaterynivka,47.657,35.2591,3320
Staryi Saltiv,50.0778,36.7933,3318
Pluzhnoye,50.1803,26.5628,3297
Koropets,48.9386,25.1794,3253
Ivanivtsi,48.4847,27.0147,3253
Khymchyn,48.3839,25.1497,3245
Sholokhove,47.6981,34.0238,3230
Chervonyy Oskil,49.1744,37.428,3217
Vil’khivtsi-Lazy,48.1258,23.6975,3215
Vylok,48.1,22.8333,3201
Rudnyky,49.4489,23.9136,3197
Lysychovo,48.4908,23.2742,3187
Shpykiv,48.787,28.5642,3183
Kopashnovo,48.2156,23.4822,3161
Ivanopil,49.8586,28.2156,3154
Spaske,48.6579,35.0499,3145
Rozivka,47.3929,37.0694,3140
Lazurne,46.0808,32.52,3140
Novi Bilokorovychi,51.0475,28.0519,3117
Pryshyb,47.2564,35.3239,3110
Krasnyi Kut,48.2119,38.7767,3108
Hlyniany,49.8233,24.5167,3103
Novoekonomichne,48.3278,37.3319,3098
Orilka,48.9805,36.0075,3095
Lukiv,51.2333,24.3475,3090
Malyy Rakovets’,48.2642,23.2064,3086
Olyka,50.7167,25.8167,3079
Horinchovo,48.2697,23.4339,3071
Koviahy,49.9044,35.5586,3045
Nyzhnie Selyshche,48.1997,23.4475,3044
Obertyn,48.6894,25.17,3034
Mykhailo-Kotsiubynske,51.455,31.0772,3028
Bila Tserkva 2,47.95,23.9333,3024
Holovne,51.3333,24.0833,3013
Batovo,48.3667,22.3833,3003
Novyi Yarychiv,49.9019,24.3033,3002
Berezovo,48.3039,23.4892,3000
Stari Petrivtsi,50.6525,30.4158,2963
Hozhuly,49.6056,34.4479,2947
Myrne,46.9502,35.4431,2944
Sadky,49.009,33.4602,2939
Lysets,48.8717,24.6047,2914
Polovynkyne,49.225,38.915,2913
Urzuf,46.9119,37.0936,2904
Staryi Mizun,48.9206,23.8739,2879
Myropillya,51.0225,35.2603,2873
Chervone,49.9497,28.8686,2859
Pervomaiskyi,47.9736,38.7875,2837
Lychkove,49.0918,35.2078,2822
Stanislavchyk,48.9728,28.1028,2813
Babyntsi,50.6411,30.0269,2810
Yezupil,49.0431,24.7764,2807
Koktebel,44.96,35.2406,2807
Orativ,49.1876,29.5289,2804
Oleksandrivka 2,48.5173,35.2304,2799
Dertsen,48.335,22.6825,2793
Holubyne,48.5714,22.9697,2781
Blyzhnie,45.0569,35.3306,2779
Narodychi,51.2029,29.0823,2770
Voinyliv,49.1194,24.4936,2757
Andriivka,47.1026,36.5871,2755
Poliana,48.6253,22.9697,2747
Sheludkivka,49.6778,36.5433,2746
Askaniia-Nova,46.4511,33.8683,2741
Imstychovo,48.2953,23.1969,2729
Chernivtsi 2,48.5425,28.1122,2725
Hlodosy,48.4614,31.3294,2722
Sernyky,51.8217,26.2358,2716
Shramkivka,50.1333,32.1333,2709
Kotovka,49.1301,34.9428,2689
Khroly,49.9014,36.3687,2687
Petrushiv,48.0767,23.8064,2687
Smyha,50.24,25.7658,2668
Popeli,49.3092,23.385,2636
Molodkiv,48.6568,24.5085,2629
Lyubymivka,48.3721,35.1772,2610
Ustia,48.3778,29.6606,2610
Delen,45.9125,29.1878,2606
Saksahan,48.3468,33.8406,2603
Partyzanske,48.5871,34.8143,2591
Kurylivka,48.5732,34.6104,2583
Kaihador,44.9633,35.3553,2572
Barturyn,51.3333,32.8833,2552
Sursko-Mykhailivka,48.272,34.7276,2552
Kyinka,51.4544,31.1983,2552
Lypetska Poliana,48.3344,23.3594,2544
Trushki,49.7544,29.9428,2531
Novoselytsia,48.4333,26.9814,2520
Bilokorovychi,51.1089,28.0175,2520
Ivana Franka,49.3619,23.3206,2518
Chornukhy,50.2699,32.9476,2491
Tomashhorod,51.3122,27.025,2487
Babche,48.6667,24.4417,2484
Khomutets,50.0619,33.7235,2477
Bilousivka,49.9453,32.3714,2473
Nikita,44.5111,34.2353,2466
Stari Kryvotuly,48.7858,24.8556,2466
Nahiryanka,48.9308,25.7342,2460
Vovkovyntsi,49.2085,27.656,2458
Pershotravneve,51.3929,28.8684,2454
Korytne,48.3336,25.3753,2452
Tereshky,49.5471,34.6227,2450
Prydniprovske,47.6182,34.4506,2443
Zarichany,50.23,28.65,2439
Yelizavetivka,48.6197,34.6496,2439
Aviatorske,48.3664,35.083,2438
Chyshky,49.7975,24.1689,2426
Parafiivka,50.885,32.6464,2407
Zalukva,49.1192,24.7111,2403
Morske,44.8306,34.8014,2394
Satanov,49.25,26.2667,2393
Vyrishal’ne,50.1914,33.4488,2387
Strilky,49.3264,22.9717,2375
Mykhailivka,48.4964,38.9025,2373
Chornivka,48.4186,26.0106,2364
Shalyhyne,51.5676,34.1197,2363
Sharovechka,49.415,26.8986,2359
Vyshneve,48.4369,33.9185,2347
Izobilne,44.7014,34.3533,2333
Verkhnosadove,44.6889,33.7056,2331
Aeroflotskyi,45.0194,34,2325
Lenkivtsi,48.5056,26.7586,2325
Drachyntsi,48.3164,25.7003,2324
Zhovte,48.5041,33.5401,2315
Belz,50.3833,24.0167,2308
Slov”yanka,48.3997,36.7152,2304
Verbka,48.2139,29.2847,2295
Perebykivtsi,48.5861,26.1358,2292
Vyhoda,48.9667,23.95,2287
Nyzhnii Bystryi,48.3628,23.5272,2260
Matroska,45.345,28.7758,2259
Velyki Korovyntsi,49.9714,28.2947,2258
Novovasylivka,46.8314,35.7543,2253
Zhniatyno,48.3506,22.5958,2243
Kosari,49.045,32.1817,2243
Zavorychi,50.7056,31.1328,2241
Osynove,49.5636,39.0675,2240
Topchyno,48.0389,23.8528,2238
Vyshcheolchedaiv,48.7236,27.6842,2236
Sytkivtsi,48.9066,29.2022,2235
Chornotysiv,48.0783,23.0536,2232
Takhtaulove,49.6616,34.5294,2231
Pidhorodna,48.107,30.8895,2225
Stari Troiany,45.6719,29.1703,2225
Utoropy,48.3864,24.9831,2218
Bilokrynnytsia,50.1429,25.7497,2215
Fedorivka,47.5455,36.5555,2214
Slavhorod,48.1097,35.5109,2211
Borki,49.9133,23.9178,2203
Nova Haleshchyna,49.1688,33.7584,2201
Yur”yivka,48.7397,36.0216,2195
Vysunsk,47.2564,32.8189,2191
Komysh-Zoria,47.3275,36.6931,2188
Velykyi Khutir,49.8617,32.1053,2184
Obolon,49.604,32.8765,2183
Mykhaylivka,47.9527,35.265,2177
Ustyluh,50.86,24.1569,2176
Nelypivtsi,48.42,26.92,2171
Voinivka,48.7086,33.0611,2171
Khomenky,48.6853,28.2306,2165
Novopetrivka,46.8266,36.8944,2161
Rotmistrivka,49.1489,31.7158,2156
Liubar,49.9205,27.7592,2153
Piilo,49.0028,24.3036,2150
Skhidnytsia,49.2013,23.3617,2149
Mali Kopani,46.4356,32.7289,2147
Babyn,48.5242,26.8553,2143
Sokolivka,48.4419,28.9922,2134
Kovalivka,49.606,34.7,2133
Pryshyb,49.5115,36.751,2132
Bulakhivka,48.5995,35.6663,2128
Berezyna,49.4461,24.0672,2127
Rososhany,48.3986,26.9994,2125
Stare Selo,49.7036,24.1917,2119
Hertsa,48.15,26.25,2118
Preslav,46.6879,36.2135,2109
Kornyn,50.0839,29.5375,2108
Lisovi Hrynivtsi,49.4744,27.0158,2108
Malomykolaivka,48.3069,39.0219,2096
Stinka,48.9172,25.2504,2090
Tynytsia,51.1333,32.9167,2088
Liubech,51.7052,30.6617,2086
Berezhynka,48.4867,32.3547,2082
Bilyne,47.8731,29.6244,2074
Svyatets,49.8439,26.2975,2074
Yabluniv,48.4042,24.9387,2070
Klenovyi,48.1189,39.4564,2070
Maidanetske,48.8169,30.71,2069
Tartak,48.2022,29.4119,2064
Dubivtsi,49.0814,24.7736,2059
Hubnyk,48.6192,29.3306,2055
Vilne,45.5656,34.3064,2055
Kapulivka,47.5476,34.2266,2053
Potoky,49.0973,33.5784,2050
Uhroyidy,50.8626,35.2688,2046
Moshoryne,48.6158,32.7219,2045
Belobozhnitsa,49.0494,25.6814,2035
Barashi,50.7156,28.0308,2032
Tiudiv,48.2394,25.1303,2031
Kozhanka,49.9681,29.7647,2029
Prykolotne,50.1586,37.3367,2026
Borozenske,47.1786,33.4197,2024
Piatyhory,49.3397,29.9089,2017
Viitivtsi,49.6239,27.9014,2015
Andrushky,49.8731,29.3433,2014
Dovzhok,48.2392,28.5261,2013
Mazurivka,48.6569,28.8142,2010
Mostove,47.4172,30.9883,2008
Ploske,50.5378,31.1003,2007
Chkalove,47.695,34.3216,1996
Vilne,48.7427,35.2941,1994
Velyka Kyriivka,48.3772,29.6247,1993
Lykhivka,48.6874,33.9228,1992
Prybuzhzhia,47.6719,31.2422,1989
Ozaryntsi,48.5406,27.8069,1987
Yablunytsia,48.3161,24.5033,1986
Sheshory,48.3364,24.9911,1984
Opytne,48.5542,38.0169,1983
Dobrovlyany,48.6641,25.754,1980
Zelena,48.3628,26.725,1980
Bandurove,48.2275,29.8606,1980
Krasnosilka,48.5064,29.6214,1978
Chaplynka,48.7348,34.7726,1978
Chumaky,48.6579,34.8739,1977
Lypne,51.0189,26.0344,1976
V”yazivok,48.643,35.7708,1973
Berezova Rudka,50.3153,32.2401,1971
Chemer,51.0989,31.2186,1971
Kvitneve,49.9847,29.5158,1969
Velyka Burimka,49.6089,32.6381,1967
Velykomykhaylivka,47.972,36.4723,1963
Dubyshche,50.9264,25.3,1958
Vysokopillia,49.9186,35.4203,1957
Ivanivka,48.7276,34.5755,1957
Lativka,46.5642,30.7114,1955
Semykozivka,49.2433,39.5678,1949
Vakulenchuk,49.9417,28.3031,1947
Bilshivtsi,49.1833,24.75,1938
Poberezhzhia,49.02,24.8225,1938
Semenivka,47.9347,31.0594,1937
Repuzhyntsi,48.6531,25.7931,1936
Troianiv,50.1133,28.5231,1929
Priadivka,48.9198,34.7067,1922
Serby,48.1014,29.0667,1921
Serdyte,48.0417,38.3883,1920
Mala Petrykivka,48.7141,34.6603,1917
Borovytsia,49.2433,32.4889,1909
Sukha,48.4292,23.2997,1906
Kumachove,47.6239,38.2642,1903
Hvizdets,48.5753,25.2831,1902
Nemyriv,50.1039,23.4344,1900
Vyshnivchyk,49.0211,26.4672,1897
Pishchane,49.2692,38.9511,1896
Velyka Byihan,48.2481,22.5747,1893
Monastyrets,48.2928,23.4278,1891
Horoshova,48.5457,26.105,1891
Chopovychi,50.8333,28.9525,1888
Mykhailivka 3,48.8075,28.2906,1888
Doslidnytske,49.9219,30.1478,1881
Pristromy,50.2253,31.4311,1880
Samhorodok,49.5306,28.8417,1878
Shamraivka,49.7719,29.8328,1877
Kniazhdvir,48.5581,24.9128,1875
Zelenky,49.7467,30.9286,1873
Holovyne,50.4725,28.8281,1867
Pryvitne,44.8222,34.6778,1867
Shcherbani,49.5334,34.5385,1864
Vilkhivka,48.2633,23.0656,1857
Simer,48.7322,22.5169,1856
Ostriv,50.3939,24.1697,1849
Ternivka,44.5819,33.7444,1843
Piatkivka,48.3189,29.3833,1841
Pysarivka,48.3264,28.3956,1840
Bohdanivka,47.8158,31.1344,1839
Pysarivka,49.52,26.4458,1837
Staryy Chortoryys’k,51.2242,25.8825,1829
Vakhnivka,49.32,28.8433,1828
Zinkiv,49.0769,27.0722,1822
Belogorodka,50.0042,26.6475,1816
Vovche,49.2111,22.9094,1813
Velyka Pavlivka,50.2369,34.2683,1813
Novopokrovka,48.0552,34.6132,1807
Komariv,48.5597,26.9883,1804
Svitlohirske,48.3447,34.5089,1801
Severynivka,49.0511,27.9458,1800
Tsybuleve,48.8144,32.4878,1797
Ostapovo,49.3786,26.0358,1785
Horodyshche,49.0511,39.6514,1777
Stavchany,49.7575,23.8392,1775
Ternivka,48.3944,28.9019,1775
Vil’bivne,50.3597,26.5667,1771
Baibuzy,49.4772,31.6728,1765
Bilozirka,47.0853,32.4544,1757
Shepit,48.2653,24.8567,1752
Novotaromske,48.4015,34.6784,1751
Kolybaivka,48.6411,26.545,1742
Hirne,49.1806,23.7342,1740
Razdory,48.3285,35.7045,1739
Chervone,49.8028,24.7656,1738
Vynohradne,47.0906,37.6603,1738
Bykivka,50.2928,27.9831,1734
Byrlivka,50.0853,32.0725,1729
Hrabiv,48.9047,23.9989,1723
Ivankov,48.8242,26.1724,1718
Maidan,48.6117,23.5019,1717
Deleva,48.9117,25.2208,1712
Havryshivka,49.2367,28.6425,1712
Berestechko,50.35,25.1167,1711
Syniukhyn Brid,48.1458,30.8208,1708
Karpylivka,50.8483,25.8406,1699
Krylos,49.0883,24.6886,1697
Huta,51.6289,24.1264,1694
Andriievo-Ivanivka,47.5008,30.4633,1692
Bokhonyky,49.1644,28.38,1690
Novozarivka,47.6406,38.1311,1688
Bilche,49.41,23.8294,1684
Samchyky,49.7592,27.3869,1682
Veryn,49.4844,23.9903,1680
Abazivka,49.6053,34.3499,1679
Bochechky,51.2994,33.4176,1679
Chernyatin,49.0475,27.9089,1677
Sharivka,50.0272,35.4411,1674
Imeni Shevchenko,48.22,37.1453,1674
Polianka,50.2584,27.6881,1672
Tavrychanka,46.5533,33.8203,1671
Kocherezhky,48.6681,35.6895,1670
Kyslychuvata,47.8508,34.7262,1657
Iltsi,48.1531,24.76,1653
Velyka Andrusivka,49.0533,32.9544,1647
Kovalivka,49.9847,30.0131,1646
Volosianka,48.9808,22.8072,1646
Buzovytsia,48.5014,26.9275,1642
Vilshanka,48.2458,28.6256,1640
Rybakivka,46.6203,31.3514,1640
Holma,47.9211,29.8531,1635
Krasnopilka,48.8,29.7178,1627
Troiandove,46.8944,30.8611,1623
Stari Kodaky,48.3792,35.1332,1619
Palanka,48.7294,30.0983,1608
Kuchakiv,50.3756,31.1264,1605
Borivtsi,48.5867,25.6361,1601
Holovy,48.0619,24.8789,1599
Birky,51.8081,25.1947,1599
Verchany,49.2619,23.8992,1594
Sviatylivka,49.4628,32.8108,1594
Mykolaivka,47.985,34.1545,1594
Zarichchia,50.8383,24.2975,1590
Vladychen,45.5656,28.6039,1587
Huiva,50.2108,28.6553,1585
Velykyi Zhvanchyk,48.7617,26.9631,1584
Nasypne,45.0458,35.2958,1581
Plodorodne,47.1651,35.3162,1577
Radisne,46.9997,30.3397,1572
Cherepashyntsi,49.5325,28.5928,1571
Mankivka,48.4819,29.6281,1567
Chernelytsya,48.8111,25.43,1564
Lyutens’ki Budyshcha,50.1837,34.2328,1562
Ust-Chorna,48.3192,23.9389,1560
Lukovo,48.3197,23.2108,1558
Bystryk,49.7364,29.1436,1557
Hrechyshkyne,48.8642,38.895,1549
Rokyni,50.8333,25.2833,1548
Trostianets,48.3578,28.2317,1545
Baranykivka,49.1586,39.8453,1544
Ivashkivtsi,48.7439,27.9475,1543
Bazaliia,49.7178,26.4708,1541
Doroshivtsi,48.5872,25.8931,1534
Rogozno,49.8747,23.3397,1529
Derno,50.7728,25.7458,1529
Zaliznyi Port,46.1222,32.2983,1528
Menchykury,47.0711,34.8041,1527
Kozhukhivka,50.2536,30.2333,1522
Kosmach,48.7497,24.3686,1517
Zelenohirske,47.8728,30.0978,1516
Lisnyky,50.3039,30.5158,1513
Medynia,49.0917,24.5769,1511
Turiia,48.8717,31.6519,1511
Tokari,50.4148,33.4274,1511
Potashnia,48.3131,29.6122,1510
Havrylivka,47.2219,33.8769,1509
Tatariv,48.3436,24.5778,1508
Mala Uhol’ka,48.1769,23.6383,1503
Borzhava,48.1564,22.7217,1502
Lisovychi,49.5131,30.4664,1501
Beleluia,48.4986,25.4775,1500
Andriivka,44.8161,33.5635,1498
Zarih,49.8085,32.6541,1498
Krupske,49.4619,24.03,1494
Kryvorivnia,48.175,24.8964,1493
Borisov,50.1753,26.6481,1491
Stryzhivka,49.9081,27.7419,1490
Mezhyrich,50.3011,26.475,1490
Antonivka,48.5286,28.4314,1488
Trudove,45.6183,29.3967,1487
Vilkhovets,48.6986,27.3575,1485
Kapytolivka,49.1936,37.3542,1485
Kamianske 2,48.2797,22.9386,1482
Holovkivka,49.1203,32.3383,1481
Luka,50.4602,33.2907,1480
Hlynsk,49.5753,28.4642,1471
Novokrasnyanka,49.1433,38.2431,1471
Makariv Yar,48.5744,39.7169,1470
Suskovo,48.5422,22.9153,1468
Kolychivka,51.4136,31.3042,1468
Ivanopillia,48.4794,37.7589,1466
Sokolove,49.7167,36.1958,1464
Rudnyky,51.0336,25.7619,1461
Mykhailivka 4,48.835,29.5447,1460
Hranitne,50.7428,29.3522,1459
Nehrovets,48.4617,23.6406,1456
Oleksandrivka,47.7329,33.5318,1455
Livyntsi,48.4081,26.6081,1452
Rachky,48.9933,28.9058,1452
Buhas,47.6347,37.5614,1449
Pysarivka,49.1939,28.6011,1448
Rivne 3,46.3661,34.7569,1447
Horianivske,48.5792,34.875,1443
Moshanets,48.4733,26.6939,1442
Popivtsi,48.9033,27.8334,1441
Olenivka,45.3833,32.5333,1441
Anysiv,51.4356,31.3611,1441
Dyrdyn,49.2428,31.4467,1440
Rozsosha,49.3392,26.8803,1438
Khrystoforivka,47.9822,33.0877,1437
Studenytsia,50.3386,28.8972,1437
Harasymiv,48.7522,25.2061,1436
Skomoroshky,49.3292,29.4408,1435
Stavky,48.3819,29.7803,1434
Holubynka,44.5972,33.9153,1433
Olenivka,48.9372,34.9841,1427
Ulashkivtsi,48.8994,25.8186,1423
Mykolaivka,47.5322,30.2489,1423
Ozeriany,50.4957,32.9039,1422
Uspenivka,47.7815,36.3992,1422
Bashmachka,48.156,35.0109,1421
Kodra,50.5942,29.5667,1420
Iverske,48.6367,36.9608,1419
Ivanivka,48.0985,36.6427,1417
Hrunyky,48.1456,23.6658,1416
Hordiivka,48.5206,29.3175,1416
Lisova Lysiivka,49.3647,28.6114,1416
Strilkove,45.8964,34.8811,1415
Denyshi,50.2153,28.4078,1411
Bene,48.1664,22.7569,1409
Chukaluvka,48.8681,24.6897,1407
Prymorske,47.3208,37.9439,1407
Adamivka,48.3235,34.2162,1406
Stratiivka,48.145,29.4258,1403
Borynia,49.0778,22.9953,1402
Myroliubivka,48.2586,28.8386,1402
Perkivtsi,48.4489,26.6561,1399
Ternivka,48.5403,29.9678,1395
Novyi Bilous,51.5356,31.1853,1394
Velikiy Khodachkov,49.4869,25.4372,1392
Troyits’ke,48.414,35.8668,1392
Radovel,51.1489,27.8356,1380
Rudkivka,50.77,31.2964,1380
Velbivka,50.343,34.0463,1379
Medzhybizh,49.436,27.395,1377
Stepove,48.6387,34.9063,1375
Trebukhivtsi,49.4297,27.4106,1375
Staryi Ostropil,49.8096,27.5593,1374
Zarichne,48.7017,28.7939,1372
Zaluzh’ye,49.9661,23.4292,1371
Hleiuvatka,48.0475,33.422,1371
Khodorkiv,50.0972,29.3081,1371
Lozova 2,48.6728,28.0108,1369
Pasytsely,47.8364,29.65,1369
Dmukhailivka,49.0566,34.7604,1367
Zabuzhzhia,50.4853,24.2628,1366
Voloske,48.3049,35.1394,1362
Zhuravlivka,48.6394,28.7292,1360
Hulsk,50.5192,27.7211,1360
Ruska Mokra,48.3483,23.9008,1358
Loshkarivka,47.935,34.1539,1358
Suvorove,46.0872,33.6911,1357
Melekyne,46.9561,37.3897,1356
Malyy Khodachkov,49.4869,25.8358,1352
Pryvitne,50.6372,24.7489,1351
Chornoholova,48.8508,22.6069,1348
Hupalivka,49.1034,34.7277,1347
Holoskiv,49.3808,27.3431,1346
Chortomlyk,47.6232,34.142,1345
Zahirne,49.275,23.9761,1345
Popasne,48.8139,35.532,1345
Vremivka,47.8344,36.8133,1344
Solomonovo,48.4306,22.1639,1342
Zhuravne,49.5081,28.1781,1340
Vakulove,47.8984,33.9327,1338
Kolodribka,48.6332,26.0215,1337
Kachanivka,49.6392,27.8969,1337
Popelnaste,48.6611,33.7131,1334
Kvitky,49.3158,31.2458,1332
Polohy,49.9156,30.1147,1331
Stepanivka,49.1306,28.7656,1329
Hrushivtsi,48.5478,26.8214,1327
Kopachivka,50.8819,25.2267,1327
Pivdenne,47.6674,34.361,1327
Vovchynets,48.4528,26.9128,1325
Pashkivtsi,49.7686,27.1319,1323
Tarasivka,50.2464,34.3491,1321
Nova Dacha,48.5494,36.211,1319
Katerynivka,48.0141,36.1312,1317
Novomykolaivka,48.3092,34.8618,1314
Hirsivka,46.6403,35.394,1313
Hreblya,48.2831,23.0494,1312
Stryzhivka,50.3019,28.9858,1310
Ternuvate,47.8305,36.1276,1306
Lavky,48.48,22.6944,1299
Velyka Linyna,49.3853,22.9067,1299
Nekhvoroshch,49.9633,28.9561,1297
Baykovtsy,49.5603,25.6872,1296
Vynohrad,49.2364,30.5472,1294
Borshchivka,49.5082,36.9742,1292
Senkevychivka,50.5333,25.0333,1290
Budy,48.4669,29.2331,1290
Berezhany,49.5442,28.5072,1287
Richytsya,51.7589,24.6575,1285
Palahychi,48.9028,24.9956,1284
Stari Sanzhary,49.4284,34.4474,1283
Krasnoillia,48.1081,24.905,1282
Korchyn,49.0961,23.5364,1281
Kukavka,48.6036,27.705,1281
Trokhizbenka,48.7575,38.9633,1280
Horodyshche,49.3669,28.1036,1273
Mytchenky,51.2833,32.95,1272
Zhabotyn,49.1575,32.1506,1270
Mykhailivtsi,48.8756,27.5211,1270
Bilenke,46.0519,30.3697,1268
Lupareve,46.6969,31.9794,1268
Mykolaivka,48.3567,34.6806,1266
Zavadov,50.0606,23.3925,1261
Verkhivka,48.4419,29.1606,1261
Nova Hreblia,49.4667,28.7644,1258
Kopaihorod,48.855,27.8019,1258
Brody,51.7639,24.5275,1255
Zelenkiv,48.7797,30.6497,1253
Barashivka,50.2714,28.5489,1250
Babyn,49.1314,29.3228,1247
Pidplesha,48.1314,23.8003,1244
Mardarivka,47.5333,29.7333,1241
Sudiivka,49.5086,34.4305,1240
Kytaihorod,48.9667,29.4969,1236
Khreshchatytske,47.2331,37.9269,1235
Biloberizka,48.1656,25.0469,1234
Hlyboke,45.7292,29.6094,1232
Vasyliv,48.6042,25.8417,1229
Mykolaivka,48.5437,34.7086,1228
Vorotsev,49.8572,23.8178,1228
Dihtiari,50.5814,32.7699,1227
Kaydanovo,48.4725,22.5758,1224
Fedorivka,46.8006,32.8061,1222
Myrne,50.5928,24.8939,1222
Stara Sil,49.4894,22.9656,1221
Bukachivtsi,49.2583,24.4972,1221
Synkiv,48.6172,25.9572,1221
Horyhliady,48.8756,25.1481,1220
Sedlyshche,51.6753,25.3847,1217
Verkhnii Luzhok,49.3617,23.0181,1216
Bozhkivs’ke,49.6698,34.7583,1214
Isaiky,49.4833,30.815,1211
Bezborodky,49.8994,31.9856,1211
Dnistrivka,48.5361,26.9258,1208
Ladychin,49.3778,25.5703,1208
Mykolayiv,50.34,24.9692,1206
Vesela Dolyna,46.2333,29.3167,1206
Verkhnii Yaseniv,48.1614,24.9453,1205
Voziluv,48.8552,25.3126,1204
Andriivka,46.22,30.0825,1203
Gorishnyaya Vygnanka,49.0267,25.8067,1202
Pomynyk,48.9017,30.2872,1201
Zavadiv,49.2533,23.765,1197
Vesela Hora,48.7117,39.2497,1197
Tavriiske,46.585,34.8484,1195
Keleberda,49.7442,31.5611,1194
Pysmenne,48.203,35.8057,1193
Pasika,48.5292,22.9058,1193
Serbynivtsi,49.0929,27.9279,1193
Dmytrivka,46.6339,31.735,1193
Mel’nyky,51.5497,23.935,1192
Shulhivka,48.7434,34.3924,1191
Peredilske,48.7569,39.1489,1191
Zhdanivka,48.9623,35.0637,1191
Komariv,49.1417,28.6639,1190
Roishche,51.6539,31.2636,1190
Lepetykha,47.3283,33.0503,1190
Kam”yane,47.8742,35.3985,1188
Birky,50.1251,34.1706,1188
Zamahora,48.1022,24.8217,1185
Podishor,48.0422,23.8658,1183
Luchyste,44.7436,34.3711,1180
Huliaipole,48.1211,34.1495,1177
Sabatynivka,48.1783,30.1844,1176
Yevhenivka,47.0886,32.9003,1176
Novyi Kropyvnyk,49.2167,23.3103,1175
Slobozhanske,50.1928,36.4136,1173
Seliatyn,47.8736,25.1861,1173
Kruhlyakivka,49.5278,37.7125,1173
Blystavytsya,50.6006,30.1822,1172
Hlushkiv,48.6436,25.4767,1171
Holovetsko,49.3083,22.8906,1170
Lytvynivka,49.3111,39.4414,1168
Slobodka-Mushkatovka,48.8114,26.101,1166
Oleksiivka,48.0186,36.9497,1163
Pishcha,51.605,23.81,1162
Stara Huta,51.4119,24.2436,1161
Zvenyhorod,49.7328,24.2469,1156
Nedaivoda,48.14,33.3758,1156
Kernitsa,49.7811,23.7556,1155
Bodakva,50.2996,33.4281,1152
Nadezhdivka,46.7067,32.3617,1151
Duba,48.8481,24.1533,1150
Krasnostavtsy,48.7972,26.3981,1149
Bodaki,49.8933,25.8071,1148
Zasluchne,49.6581,26.7747,1148
Verbka,48.2883,28.5689,1148
Khoroshe,48.5549,36.4766,1145
Rosishka,47.985,24.0697,1144
Novohupalivka,48.0238,35.4233,1144
Lozuvatka,48.4665,33.8825,1142
Kalynivske,47.115,32.9747,1142
Kryklyvets,48.3217,28.9786,1139
Mikhailivka,48.2733,28.0944,1138
Uniatychi,49.3736,23.4158,1138
Kutyshche,48.9078,25.1192,1137
Velykyi Trostianets,49.4975,34.539,1137
Korniyivka,50.4183,31.4533,1137
Arkhanhelska Sloboda,46.635,33.7047,1136
Rudnytsia,48.2667,28.9333,1132
Zdvyzhivka,50.6722,30.0692,1132
Pryvilne,48.2099,34.7188,1131
Dobra,48.9631,30.1325,1130
Napadovka,49.8852,26.0357,1128
Novooleksandrivka,49.1336,39.2789,1128
Peremoha,51.5482,33.9418,1128
Vilshany,48.35,23.6197,1125
Bernove,48.4981,26.6336,1125
Rozvazh,50.3669,26.515,1123
Podove,46.5561,34.1403,1123
Stavnytsia,49.4478,27.4264,1121
Yablunets,50.8,28.0667,1121
Nyzhniy Dubovets’,48.1592,23.9089,1121
Rashkiv,48.5111,26.2689,1120
Bobrivnyk,50.2347,34.3054,1120
Rusov,48.5153,25.525,1119
Sarazhynka,48.0878,29.4475,1119
Maidan,49.0075,24.5611,1117
Nehrovo,48.3719,22.9094,1116
Sedniv,51.6433,31.5689,1116
Novopoltavka,47.5483,32.5011,1115
Poltavka,47.7192,36.4821,1113
Solochyn,48.6003,22.9564,1111
Sosnivka,50.2916,34.0175,1110
Nahirne,49.4817,23.2206,1108
Kaznacheyivka,48.7958,35.0811,1107
Dobrik,48.0122,23.9033,1106
Potik,49.7622,31.0542,1106
Andrushivka,49.36,29.2025,1104
Zhdeniievo,48.7667,22.9833,1102
Pnikut,49.711,23.1383,1101
Saivka,48.3457,33.881,1101
Novyy Svit,44.8292,34.9128,1100
Chkalove,47.0722,34.7122,1100
Ustia,48.6134,26.0868,1099
Zaliznychne,47.6504,36.1662,1099
Mykhailivka 5,49.9242,32.1781,1096
Zaytseve,48.4312,35.6711,1095
Oleyëvo-Korolëvka,48.7421,25.9935,1094
Naraivka,48.9019,29.6842,1094
Samarske,48.4799,36.4621,1094
Krasnostavtsi,48.5328,25.4831,1093
Lisohirka,49.3742,27.4206,1087
Horodok,51.37,25.4792,1086
Krasnyk,48.1444,24.7364,1086
Samary-Orikhovi,51.8517,24.6633,1082
Staryy Skalat,49.4639,25.9822,1081
Vesele,48.2317,36.6133,1081
Reia,50.0219,28.6219,1080
Abrykosivka,45.1097,35.0986,1079
Pohreby,50.095,32.1889,1079
Chernechchyna,49.1192,34.7703,1077
Buzynove,46.9742,30.4869,1077
Krasnokamianka,44.5625,34.2931,1074
Livadiia,44.4708,34.1439,1074
Chornyy Potik,48.1808,22.9067,1074
Bohynivka,48.489,36.3527,1073
Fertesholmash,47.9808,22.9269,1070
Lemeshivka,50.3125,32.0767,1070
Novoderkul,49.1294,39.6203,1070
Stara Kulna,47.6961,29.315,1067
Preobrazhenka,48.9716,34.6129,1066
Bairachky,48.3883,38.5992,1065
Puhachivka,50.5669,25.6192,1065
Zhukotyn,48.6778,25.0642,1064
Skelivka,49.5353,22.9625,1062
Kariv,50.3469,23.7989,1057
Malyi Kobeliachok,49.3429,34.218,1057
Bilkivtsi,50.3675,28.9772,1056
Borokhiv,50.7811,25.4611,1054
Ivanivka,47.5778,37.3175,1052
Kashperivka,50.2714,27.5281,1052
Vistria,48.9247,25.1311,1050
Melnyky,49.1433,32.2969,1050
Oleksandrivka,46.5371,35.4897,1049
Verkhivtsi,49.6353,23.1006,1047
Zaperedillia,48.4747,23.5042,1043
Basyuvka,49.7811,23.9092,1042
Viktoriya,50.2406,32.288,1042
Peremyl,50.3961,25.1642,1041
Volitsa,49.81,23.0878,1040
Hyryavi Iskivtsi,50.4247,33.3134,1040
Bendzary,47.9308,29.6642,1040
Bochanytsya,50.5286,26.6953,1038
Stina,48.4525,28.4211,1033
Vytylivka,48.4072,25.8011,1032
Somaky,49.1147,28.1058,1029
Zhuky,49.6749,34.5007,1027
Kosyno,48.5125,22.7994,1026
Fastovets,50.0572,30.0442,1024
Bohdanivka,48.6414,29.1081,1023
Shandra,49.7864,31.1519,1023
Savyntsi,48.4775,29.0544,1022
Pidlisne,48.7842,32.2531,1022
Demuryne,48.1781,36.483,1021
Zoryane,48.4985,36.826,1021
Pridberezzia,50.5417,24.6186,1020
Sadove,46.0233,29.2742,1020
Marianivka,48.3118,33.5294,1016
Mariiampil,49.0383,24.8525,1015
Verkhnia Stynava,49.1603,23.6136,1012
Ivanivske,49.4489,35.5536,1012
Luhy,48.2217,29.1411,1012
Veselivka,48.6239,29.8625,1011
Volytsia,50.3914,24.3475,1009
Mytlashivka,49.9764,32.3122,1009
Novi Kryvotuly,48.7936,24.9039,1008
Lany,49.6206,23.8672,1008
Kochubeyev,48.8242,26.3919,1008
Honcharivka,49.8744,24.7858,1006
Kozyriany,48.3711,26.6461,1005
Novosamarka,47.5081,29.5244,1005
Hrechane,48.7383,34.5094,1004
Novopidhorodne,48.2482,36.9008,1002
Chervonohrad,50.3842,24.2265,
Pervomaisk,48.05,30.85,
Mykolaiv,49.5266,23.9814,
Pustomyty,49.7139,23.9108,
Kitsman,48.4425,25.7614,
Hlyboka,48.0833,25.9333,
Sokyriany,48.45,27.4167,
Zastavna,48.5167,25.85,
Storozhynets,48.1597,25.715,
Zalishchyky,48.6392,25.7374,
Biliaivka,46.4828,30.2014,
Reni,45.45,28.2833,
Berezhany,49.4464,24.9436,
Kelmentsi,48.4615,26.836,
Monastyryska,49.0889,25.1694,
Haivoron,48.3333,29.85,
Volnovakha,47.5978,37.4836,
Sarny,51.3269,26.6331,
Yampil,48.2414,28.2819,
Kurman,45.501,34.3011,
Krasnohrad,49.3719,35.4569,
Novovorontsovka,47.4962,33.923,
Oleshky,46.6167,32.7167,
Zboriv,49.6616,25.1469,
Bohuslav,49.5464,30.8741,
Kiliia,45.4503,29.2667,
Peremyshliany,49.67,24.5594,
Turka,49.1544,23.03,
Rozdilna,46.8473,30.0773,
Pidhaitsi,49.2667,25.1333,
Ichki,45.3413,34.9292,
Novoazovsk,47.1167,38.0833,
Kodyma,48.1,29.1167,
Sarata,46.0232,29.6631,
Khorol,49.784,33.2589,
Skole,49.0378,23.5139,
Popilnia,49.9664,29.4433,
Artsyz,45.9833,29.4167,
Tatarbunary,45.8355,29.6147,
Savran,48.13,30.0794,
Holovanivsk,48.38,30.4472,
Putyla,47.9919,25.0908,
Snihurivka,47.0708,32.7997,
Liubashivka,47.8333,30.25,
Rozdolne,45.7702,33.4909,
Ruzhyn,49.7217,29.2187,
Novomyrhorod,48.7833,31.65,
Reshetylivka,49.5636,34.0763,
Hlobyne,49.3886,33.2632,
Novoukrainka,48.3156,31.5269,
Pervomaiske,45.7169,33.8608,
Novyi Buh,47.6833,32.5,
Varash,51.34,25.8508,
Orzhytsia,49.791,32.7015,
Nikolske,47.2019,37.3128,
Nova Odesa,47.3167,31.7833,
Velyka Bahachka,49.7944,33.7207,
Oleksandrivka,48.9667,32.2333,
Yedy-Kuiu,45.2977,35.7748,
Chornomorske,45.5039,32.7062,
Ivanivka,46.9756,30.4697,
Chaplynka,46.3629,33.5302,
Bashtanka,47.4,32.45,
Mashivka,49.4449,34.8758,
Vysokopillia,47.4797,33.53,
Vradiivka,47.8617,30.5931,
Velyka Mykhailivka,47.0783,29.8533,
Arbuzynka,47.9067,31.3131,
Kozelshchyna,49.2155,33.8518,
Petrove,48.3312,33.2682,
Semenivka,49.6017,33.1875,
Novotroitske,46.3559,34.3335,
Novoarkhanhelsk,48.6589,30.8186,
Oleksandriia,48.6667,33.1167,
Vilshanka,48.2322,30.8779,
Domanivka,47.6292,30.9896,
Velyka Oleksandrivka,47.3108,33.2942,
Velyka Lepetykha,47.1639,33.9381,
Bereznehuvate,47.3114,32.8478,
Velyka Bilozerka,47.272,34.6947,
Novoaidar,48.9592,39.0194,
Novhorodka,48.3565,32.6466,
Verkhnii Rohachyk,47.2414,34.36,
Kompaniivka,48.25,32.2,
Yelanets,47.6978,31.8544,
Kazanka,47.8381,32.8261,
Mykolaivka,47.5389,30.7528,
Milove,49.3778,40.1306,
Nyzhni Sirohozy,46.8395,34.376,
Ivanivka,46.71,34.55,
